{
  "success": true,
  "msg": null,
  "token": null,
  "target": null,
  "versionCode": null,
  "body": {
    "instAddresses": [
      {
        "id": 910,
        "userId": 399,
        "addressDesc": "VIP",
        "address": "融科珞瑜中心",
        "createTime": 1475808776000,
        "province": "广西壮族自治区",
        "city": "百色市",
        "area": "德保县",
        "phone": null,
        "isDefault": 1,
        "inuse": true,
        "majorName": "钢琴,古筝",
        "institutionName": "觉得基督教",
        "longitude": "116.316176",
        "latitude": "39.997741"
      },
      {
        "id": 638,
        "userId": 404,
        "addressDesc": "i艺音乐培训融科校区",
        "address": "珞瑜路95号",
        "createTime": 1467858931000,
        "province": "湖北省",
        "city": "武汉市",
        "area": "洪山区",
        "phone": null,
        "isDefault": 1,
        "inuse": true,
        "majorName": "声乐,钢琴,古筝,小提琴",
        "institutionName": "i艺音乐培训",
        "longitude": "108.968176",
        "latitude": "34.239638"
      },
      {
        "id": 641,
        "userId": 404,
        "addressDesc": "i艺音乐培训水果湖校区",
        "address": "水果湖儿童乐园87号",
        "createTime": 1467861247000,
        "province": "湖北省",
        "city": "武汉市",
        "area": "武昌区",
        "phone": null,
        "isDefault": 0,
        "inuse": true,
        "majorName": "小提琴,钢琴",
        "institutionName": "i艺音乐培训",
        "longitude": "108.075936",
        "latitude": "34.270661"
      },
      {
        "id": 645,
        "userId": 404,
        "addressDesc": "i艺音乐培训徐东校区",
        "address": "徐东大街213号",
        "createTime": 1467861483000,
        "province": "湖北省",
        "city": "武汉市",
        "area": "洪山区",
        "phone": null,
        "isDefault": 0,
        "inuse": true,
        "majorName": "小提琴,其它木管乐器,铜管乐器,单簧管",
        "institutionName": "i艺音乐培训",
        "longitude": "108.902888",
        "latitude": "34.159134"
      },
      {
        "id": 867,
        "userId": 404,
        "addressDesc": "i艺音乐培训海淀校区",
        "address": "华清嘉园",
        "createTime": 1474267165000,
        "province": "北京",
        "city": "北京市",
        "area": "海淀区",
        "phone": null,
        "isDefault": 0,
        "inuse": true,
        "majorName": "钢琴,古筝",
        "institutionName": "i艺音乐培训",
        "longitude": "108.734502",
        "latitude": "34.366822"
      },
      {
        "id": 905,
        "userId": 404,
        "addressDesc": "artapp天津校区",
        "address": "天津火车站",
        "createTime": 1475552893000,
        "province": "天津",
        "city": "天津市",
        "area": "和平区",
        "phone": "13568978452",
        "isDefault": 0,
        "inuse": true,
        "majorName": "吉他,钢琴",
        "institutionName": "i艺音乐培训",
        "longitude": "108.934224",
        "latitude": "34.253588"
      },
      {
        "id": 1254,
        "userId": 404,
        "addressDesc": "artapp泰顺校区",
        "address": "解放路2号",
        "createTime": 1487206433000,
        "province": "浙江省",
        "city": "温州市",
        "area": "泰顺县",
        "phone": "13006328881",
        "isDefault": 0,
        "inuse": true,
        "majorName": "钢琴,美术,小号,琵琶,舞蹈",
        "institutionName": "i艺音乐培训",
        "longitude": "108.962926",
        "latitude": "34.238489"
      },
      {
        "id": 1260,
        "userId": 404,
        "addressDesc": "artapp宜昌校区",
        "address": "峡江路4号",
        "createTime": 1487553006000,
        "province": "湖北省",
        "city": "宜昌市",
        "area": "夷陵区",
        "phone": "15271856362",
        "isDefault": 0,
        "inuse": true,
        "majorName": "双簧管,声乐,合唱,单簧管",
        "institutionName": "i艺音乐培训",
        "longitude": "103.86663",
        "latitude": "36.051997"
      },
      {
        "id": 1281,
        "userId": 404,
        "addressDesc": "artapp宜昌校区2",
        "address": "清江路5号",
        "createTime": 1489138615000,
        "province": "湖北省",
        "city": "宜昌市",
        "area": "当阳市",
        "phone": "15271943086",
        "isDefault": 0,
        "inuse": true,
        "majorName": "钢琴,小号,美术",
        "institutionName": "i艺音乐培训",
        "longitude": "103.707241",
        "latitude": "36.096718"
      },
      {
        "id": 276,
        "userId": 413,
        "addressDesc": "听课地之一",
        "address": "樱花大厦A座1402",
        "createTime": 1455432708000,
        "province": "湖北省",
        "city": "武汉市",
        "area": "洪山区",
        "phone": null,
        "isDefault": 1,
        "inuse": true,
        "majorName": "小提琴,钢琴,其它,单簧管",
        "institutionName": "artapp_z",
        "longitude": "103.744761",
        "latitude": "36.104394"
      },
      {
        "id": 960,
        "userId": 413,
        "addressDesc": "育新校区",
        "address": "育新",
        "createTime": 1476355605000,
        "province": "北京",
        "city": "北京市",
        "area": "昌平区",
        "phone": null,
        "isDefault": 0,
        "inuse": true,
        "majorName": "古筝",
        "institutionName": "artapp_z",
        "longitude": "105.918299",
        "latitude": "34.48885"
      },
      {
        "id": 961,
        "userId": 413,
        "addressDesc": "育新校区二",
        "address": "坎坎坷坷",
        "createTime": 1476356222000,
        "province": "北京",
        "city": "北京市",
        "area": "昌平区",
        "phone": null,
        "isDefault": 0,
        "inuse": true,
        "majorName": "钢琴",
        "institutionName": "artapp_z",
        "longitude": "103.730911",
        "latitude": "36.111356"
      },
      {
        "id": 499,
        "userId": 442,
        "addressDesc": "深圳福田",
        "address": "福田高新",
        "createTime": 1462623254000,
        "province": "广东省",
        "city": "深圳市",
        "area": "福田区",
        "phone": null,
        "isDefault": 0,
        "inuse": true,
        "majorName": "钢琴",
        "institutionName": "靳的机构",
        "longitude": "101.74888",
        "latitude": "36.645819"
      },
      {
        "id": 897,
        "userId": 490,
        "addressDesc": "金澳国际艺术中心",
        "address": "金澳国际公园",
        "createTime": 1475209690000,
        "province": "北京",
        "city": "北京市",
        "area": "海淀区",
        "phone": null,
        "isDefault": 0,
        "inuse": true,
        "majorName": "钢琴,小提琴",
        "institutionName": "金澳国际艺术培训中心",
        "longitude": "101.74888",
        "latitude": "36.645819"
      },
      {
        "id": 898,
        "userId": 490,
        "addressDesc": "金澳国际艺术中心西城分校",
        "address": "西四大街",
        "createTime": 1475209780000,
        "province": "北京",
        "city": "北京市",
        "area": "西城区",
        "phone": null,
        "isDefault": 0,
        "inuse": true,
        "majorName": "小提琴",
        "institutionName": "金澳国际艺术培训中心",
        "longitude": "106.14383",
        "latitude": "38.502388"
      },
      {
        "id": 1081,
        "userId": 597,
        "addressDesc": "乐海艺术光谷校区",
        "address": "新世界恒大华府",
        "createTime": 1478770157000,
        "province": "湖北省",
        "city": "武汉市",
        "area": "洪山区",
        "phone": "027-66669918",
        "isDefault": 0,
        "inuse": true,
        "majorName": "吉他,美术,舞蹈,其它,钢琴,书法,古筝",
        "institutionName": "武汉乐海艺术中心",
        "longitude": "87.573015",
        "latitude": "43.818545"
      },
      {
        "id": 1173,
        "userId": 597,
        "addressDesc": "乐海琴行",
        "address": "汉口春天",
        "createTime": 1481872778000,
        "province": "湖北省",
        "city": "武汉市",
        "area": "硚口区",
        "phone": "15202744486",
        "isDefault": 0,
        "inuse": true,
        "majorName": "钢琴,古筝,吉他,舞蹈,其它",
        "institutionName": "武汉乐海艺术中心",
        "longitude": "87.600303",
        "latitude": "43.839824"
      },
      {
        "id": 387,
        "userId": 648,
        "addressDesc": "积玉桥校区",
        "address": "武昌区积玉桥尚隆路18附5\n",
        "createTime": 1460016834000,
        "province": "",
        "city": "",
        "area": "",
        "phone": null,
        "isDefault": 0,
        "inuse": true,
        "majorName": "其它,吉他,钢琴",
        "institutionName": "杰朗钢琴艺术中心",
        "longitude": "87.622704",
        "latitude": "43.772078"
      },
      {
        "id": 272,
        "userId": 713,
        "addressDesc": "汉阳文化馆",
        "address": "墨水湖北路372号",
        "createTime": 1454048897000,
        "province": "湖北省",
        "city": "武汉市",
        "area": "汉阳区",
        "phone": null,
        "isDefault": 1,
        "inuse": true,
        "majorName": "钢琴",
        "institutionName": "汉阳文化馆",
        "longitude": "102.70396",
         "latitude": "25.066269"
      },
      {
        "id": 648,
        "userId": 888,
        "addressDesc": "小西瓜钢琴艺术培训-南湖分校",
        "address": "利济北路520.",
        "createTime": 1467861525000,
        "province": "天津",
        "city": "天津市",
        "area": "河东区",
        "phone": "13628668744",
        "isDefault": 0,
        "inuse": true,
        "majorName": "钢琴,小提琴,大提琴",
        "institutionName": "小西瓜钢琴艺术培训中心",
        "longitude": "102.75875",
        "latitude": "25.063838"
      },
      {
        "id": 652,
        "userId": 888,
        "addressDesc": "小西瓜钢琴艺术培训-总校",
        "address": "珞狮北路融科大厦A座603室",
        "createTime": 1467861951000,
        "province": "湖北省",
        "city": "武汉市",
        "area": "洪山区",
        "phone": null,
        "isDefault": 1,
        "inuse": true,
        "majorName": "钢琴,长笛,小提琴,美术,合唱",
        "institutionName": "小西瓜钢琴艺术培训中心",
        "longitude": "102.660574",
        "latitude": "25.078567"
      },
      {
        "id": 325,
        "userId": 1167,
        "addressDesc": "海淀校区",
        "address": "马甸东路19号金澳国际2920",
        "createTime": 1457515352000,
        "province": "北京市",
        "city": "北京市",
        "area": "海淀区",
        "phone": null,
        "isDefault": 1,
        "inuse": true,
        "majorName": "其它,钢琴,小提琴",
        "institutionName": "北京李少志",
        "longitude": "102.660574",
        "latitude": "25.078567"
      },
      {
        "id": 711,
        "userId": 1167,
        "addressDesc": "朝阳校区",
        "address": "朝阳区望京",
        "createTime": 1469424839000,
        "province": "",
        "city": "",
        "area": "",
        "phone": null,
        "isDefault": 0,
        "inuse": true,
        "majorName": "钢琴",
        "institutionName": "北京李少志",
        "longitude": "102.702368",
        "latitude": "25.060959"
      },
      {
        "id": 713,
        "userId": 1167,
        "addressDesc": "佳茵安贞校区",
        "address": "安华桥北",
        "createTime": 1469600182000,
        "province": "",
        "city": "",
        "area": "",
        "phone": null,
        "isDefault": 0,
        "inuse": true,
        "majorName": "钢琴",
        "institutionName": "北京李少志",
        "longitude": "102.448038",
        "latitude": "24.888587"
      },
      {
        "id": 721,
        "userId": 1167,
        "addressDesc": "乐童念语新源街校区",
        "address": "新源街",
        "createTime": 1469781545000,
        "province": "",
        "city": "",
        "area": "",
        "phone": null,
        "isDefault": 0,
        "inuse": true,
        "majorName": "钢琴,打击乐",
        "institutionName": "北京李少志",
        "longitude": "102.709377",
        "latitude": "25.06064"
      },
      {
        "id": 726,
        "userId": 1167,
        "addressDesc": "天通苑校区",
        "address": "天通苑东一区",
        "createTime": 1470043571000,
        "province": "",
        "city": "",
        "area": "",
        "phone": null,
        "isDefault": 0,
        "inuse": true,
        "majorName": "钢琴",
        "institutionName": "北京李少志",
        "longitude": "103.834979",
        "latitude": "25.549237"
      },
      {
        "id": 1163,
        "userId": 1167,
        "addressDesc": "artapp艺术教育-马甸校区",
        "address": "马甸东路19号金澳国际",
        "createTime": 1481678107000,
        "province": "北京",
        "city": "北京市",
        "area": "海淀区",
        "phone": "13311102835",
        "isDefault": 0,
        "inuse": true,
        "majorName": "钢琴",
        "institutionName": "北京李少志",
        "longitude": "102.797673",
        "latitude": "24.976261"
      },
      {
        "id": 287,
        "userId": 1222,
        "addressDesc": "恒大城",
        "address": "环湖路",
        "createTime": 1456312708000,
        "province": "湖北省",
        "city": "武汉市",
        "area": "东西湖区",
        "phone": null,
        "isDefault": 0,
        "inuse": true,
        "majorName": "长笛,小提琴,钢琴,打击乐,单簧管,其它,舞蹈,大提琴",
        "institutionName": "星梦艺术培训学校",
        "longitude": "106.727435",
        "latitude": "26.594053"
      },
      {
        "id": 402,
        "userId": 1222,
        "addressDesc": "常青花园",
        "address": "常青花园",
        "createTime": 1460192965000,
        "province": "安徽省",
        "city": "安庆市",
        "area": "枞阳县",
        "phone": null,
        "isDefault": 1,
        "inuse": true,
        "majorName": "书法,小提琴,钢琴,大提琴,单簧管,长笛",
        "institutionName": "星梦艺术培训学校",
        "longitude": "106.679274",
        "latitude": "26.450557"
      },
      {
        "id": 580,
        "userId": 1222,
        "addressDesc": "融科",
        "address": "95号",
        "createTime": 1464689259000,
        "province": "湖北省",
        "city": "武汉市",
        "area": "洪山区",
        "phone": null,
        "isDefault": 0,
        "inuse": true,
        "majorName": "小提琴,钢琴,大提琴,美术,单簧管,长笛",
        "institutionName": "星梦艺术培训学校",
        "longitude": "104.059612",
        "latitude": "30.704212"
      }
    ]
  }
}